{"name": "\u00cele de Chambod", "address": "2947 Route du Port, 01250 Hautecourt-Roman\u00e8che", "country": "France", "formatted_address": "2947 Route du Port, 01250 Hautecourt-Roman\u00e8che, France", "lat": 46.1295321, "lng": 5.429953200000001, "short_address": null}
{"name": "Base de loisirs Chambod-Merpuis", "address": "Chambod, 01250 Hautecourt-Roman\u00e8che", "country": "France", "formatted_address": "Chambod, 01250 Hautecourt-Roman\u00e8che, France", "lat": 46.132835, "lng": 5.428121, "short_address": null}
{"name": "Domaine du petit Chambard", "address": "route de St Triviers, 01480 Villeneuve", "country": "France", "formatted_address": "01480 Villeneuve, France", "lat": 46.021318, "lng": 4.836975, "short_address": "01480 Villeneuve"}
{"name": "Fort L'Ecluse", "address": "Parc naturel r\u00e9gional du Haut-Jura, Route de Gen\u00e8ve - Longeray, 01200 L\u00e9az", "country": "France", "formatted_address": "01200 L\u00e9az, France", "lat": 46.098699, "lng": 5.884034999999999, "short_address": "01200 L\u00e9az"}
{"name": "Abbaye Notre-Dame de Longpont", "address": "2 Place de l'Abbaye, 02600 Longpont", "country": "France", "formatted_address": "2 Place de l'Abbaye, 02600 Longpont, France", "lat": 49.2724564, "lng": 3.2208341, "short_address": null}
{"name": "Fort de Bruy\u00e8res", "address": "02860 Bruy\u00e8res-et-Montb\u00e9rault", "country": "France", "formatted_address": "02860 Bruy\u00e8res-et-Montb\u00e9rault, France", "lat": 49.527337, "lng": 3.670567999999999, "short_address": null}
{"name": "Fort de Laniscourt (Fort de Mons en Laonnois)", "address": "02000 Mons-en-Laonnois", "country": "France", "formatted_address": "02000 Mons-en-Laonnois, France", "lat": 49.538325, "lng": 3.553869999999999, "short_address": null}
{"name": "Centre de vacances LPM Biabaux", "address": "Parc Naturel r\u00e9gional du Luberon, Chemin de Biabaux, 04870 Saint Miche l'Observatoire", "country": "France", "formatted_address": "04870 Saint-Michel-l'Observatoire, France", "lat": 43.910292, "lng": 5.715193999999999, "short_address": "04870 Saint Miche l'Observatoire"}
{"name": "Monast\u00e8re de S\u00e9gries", "address": "Parc naturel r\u00e9gional du Verdon, Route Riez, 04360 Moustiers-Sainte-Marie", "country": "France", "formatted_address": "04360 Moustiers-Sainte-Marie, France", "lat": 43.8456819, "lng": 6.221481000000002, "short_address": "04360 Moustiers-Sainte-Marie"}
{"name": "G\u00eete des Sauvas", "address": "05400 Montmaur", "country": "France", "formatted_address": "05400 Montmaur, France", "lat": 44.570714, "lng": 5.873691, "short_address": null}
{"name": "Association Villages des Jeunes", "address": "Vauni\u00e8res, 05140 Saint-Julien-en-Beauch\u00eane", "country": "France", "formatted_address": "Vauni\u00e8res, 05140 Saint-Julien-en-Beauch\u00eane, France", "lat": 44.6350965, "lng": 5.656135099999999, "short_address": null}
{"name": "Fort de Rimplas", "address": "Route de la Madeleine, 06420 Rimplas", "country": "France", "formatted_address": "Route de la Madeleine, 06420 Rimplas, France", "lat": 44.0628576, "lng": 7.130057099999999, "short_address": null}
{"name": "Ch\u00e2teau de Riveneuve du Bosc", "address": "09100 Pamiers", "country": "France", "formatted_address": "09100 Pamiers, France", "lat": 43.11475299999999, "lng": 1.607953, "short_address": null}
{"name": "G\u00eete de Bois G\u00e9rard Bois G\u00e9rard", "address": "10130 Chessy-les-Pr\u00e9s", "country": "France", "formatted_address": "10130 Chessy-les-Pr\u00e9s, France", "lat": 48.02561799999999, "lng": 3.912706999999999, "short_address": null}
{"name": "Coll\u00e8ge priv\u00e9 Saint Martin", "address": "Avenue de la gare 12800 Naucelle", "country": "France", "formatted_address": "Avenue de la Gare, 12800 Naucelle, France", "lat": 44.19513860000001, "lng": 2.3495314, "short_address": null}
{"name": "Le Bourg", "address": "12230 La Couvertoirade", "country": "France", "formatted_address": "12230 La Couvertoirade, France", "lat": 43.912943, "lng": 3.31661, "short_address": null}
{"name": "Lyc\u00e9e Saint Gabriel", "address": "8 boulevard Emile Borel, 12400 Saint-Affrique", "country": "France", "formatted_address": "8 Boulevard Emile Borel, 12400 Saint-Affrique, France", "lat": 43.9571688, "lng": 2.8891912, "short_address": null}
{"name": "Centre EEDF du Hameau de B\u00e9cours", "address": "12520 Verrieres, Hameau de Becours", "country": "France", "formatted_address": "Unnamed Road, 12520 Verri\u00e8res, France", "lat": 44.231843, "lng": 3.038426, "short_address": null}
{"name": "AGCAJUP Centre D\u2019Auriol Eclaireurs Unionistes De France", "address": "1123 Chemin Saint-Francet, 13390 Auriol", "country": "France", "formatted_address": "1123 Chemin Saint-Francet, 13390 Auriol, France", "lat": 43.3630721, "lng": 5.6520246, "short_address": null}
{"name": "Centre A\u00e9r\u00e9 de Couteron", "address": "80 Rue Yvette Bonnard, 13100 Aix-en-Provence", "country": "France", "formatted_address": "80 Rue Yvette Bonnard, 13540 Aix-en-Provence, France", "lat": 43.5995707, "lng": 5.445493, "short_address": null}
{"name": "Le Cimetiere de la Bouilladisse", "address": "13720 La Bouilladisse", "country": "France", "formatted_address": "13720 La Bouilladisse, France", "lat": 43.394132, "lng": 5.593218999999999, "short_address": null}
{"name": "Ferme d'Escures", "address": "Lieu-dit Escures, 14770 Saint-Jean-le-Blanc", "country": "France", "formatted_address": "Saint-Jean-le-Blanc-Stra\u00dfe, 74177 Bad Friedrichshall, Germany", "lat": 49.2294724, "lng": 9.217743899999999, "short_address": "14770 Saint-Jean-le-Blanc"}
{"name": "Ch\u00e2teau de Saint-Martin-du-Ch\u00eane (Tour de Saint-Martin)", "address": "Le P\u00e2quier, 1415 Molondin", "country": "France", "formatted_address": "Le P\u00e2quier, 1415 Molondin, Switzerland", "lat": 46.7748932, "lng": 6.760392099999999, "short_address": null}
{"name": "Ferme Lemarchand", "address": "Grande Rue, 14880 Hermanville-sur-Mer", "country": "France", "formatted_address": "Grande Rue, 14880 Hermanville-sur-Mer, France", "lat": 49.2839641, "lng": -0.3149255, "short_address": null}
{"name": "Refuge du Bois des Brigands", "address": "1410 Thierrens", "country": "France", "formatted_address": "1410 Thierrens, Switzerland", "lat": 46.7040793, "lng": 6.753842000000001, "short_address": null}
{"name": "Coriobona", "address": "Village gaulois, Le pont Binot, 16500 Esse", "country": "France", "formatted_address": "Essex St, New York, NY 10002, USA", "lat": 40.7184139, "lng": -73.9882752, "short_address": "16500 Esse"}
{"name": "Local du Cercle des Compagnons d'Oniros (au dessus de l'\u00e9cole)", "address": "13 rue de la Libert\u00e9, 18510 Menetou Salon", "country": "France", "formatted_address": "13 Rue de la Libert\u00e9, 18510 Menetou-Salon, France", "lat": 47.2312465, "lng": 2.489254, "short_address": null}
{"name": "Ch\u00e2teau de Bannegon", "address": "18210 Bannegon", "country": "France", "formatted_address": "18210 Bannegon, France", "lat": 46.800109, "lng": 2.714471, "short_address": null}
{"name": "Route de Menetou-Salon", "address": "18110 Pigny", "country": "France", "formatted_address": "18110 Pigny, France", "lat": 47.17020369999999, "lng": 2.4472794, "short_address": null}
{"name": "G\u00eete de Boconnec", "address": "22110 Plouguern\u00e9vel", "country": "France", "formatted_address": "22110 Plouguern\u00e9vel, France", "lat": 48.237294, "lng": -3.254708, "short_address": null}
{"name": "Ch\u00e2teau de Bienassis", "address": "22430 Erquy", "country": "France", "formatted_address": "Erquy, France", "lat": 48.6290369, "lng": -2.465645, "short_address": null}
{"name": "\u00c9tang de Bosny", "address": "Bosny, 22330 Saint-Gilles-du-M\u00e8ne", "country": "France", "formatted_address": "Bosny, 22330 Saint-Gilles-du-M\u00e8ne, France", "lat": 48.24060799999999, "lng": -2.561945, "short_address": null}
{"name": "Domaine Aubepeyre", "address": "23460 Saint Yrieix la Montagne", "country": "France", "formatted_address": "23460 Saint-Yrieix-la-Montagne, France", "lat": 45.883928, "lng": 2.020427, "short_address": null}
{"name": "Ch\u00e2teau de Puyferrat", "address": "24110 Saint-Astier", "country": "France", "formatted_address": "24110 Saint-Astier, France", "lat": 45.145202, "lng": 0.52778, "short_address": null}
{"name": "Le Moulin de Lavaure", "address": "Mauzens-Miremont, 24260 Le Bugue", "country": "France", "formatted_address": "24260 Le Bugue, France", "lat": 44.91845599999999, "lng": 0.9283959999999998, "short_address": "24260 Le Bugue"}
{"name": "Fort de Mont-Bart", "address": "32 rue du mont bart, Rue du Mont Bart, 25550 Bavans", "country": "France", "formatted_address": "Bavans, France", "lat": 47.481865, "lng": 6.729976, "short_address": "25550 Bavans"}
{"name": "Le Grand Kursaal", "address": "2 Place du th\u00e9\u00e2tre, 25000 Besan\u00e7on", "country": "France", "formatted_address": "2 Place du Th\u00e9atre, 25000 Besan\u00e7on, France", "lat": 47.23480259999999, "lng": 6.026947399999999, "short_address": null}
{"name": "Mus\u00e9e du Temps de Besan\u00e7on", "address": "96, grande Rue, 25000 Besan\u00e7on", "country": "France", "formatted_address": "96 Grande Rue, 25000 Besan\u00e7on, France", "lat": 47.2358243, "lng": 6.0267738, "short_address": null}
{"name": "Chateau de Valcl\u00e9rieux Ceneric", "address": "330 Route du Ch\u00e2teau, 26350 Saint-Bonnet de Valcl\u00e9rieux", "country": "France", "formatted_address": "26350 Saint-Bonnet-de-Valcl\u00e9rieux, France", "lat": 45.195926, "lng": 5.144019999999999, "short_address": "26350 Saint-Bonnet de Valcl\u00e9rieux"}
{"name": "Ch\u00e2teau de Saint Bonnet de Valcl\u00e9rieux Ceneric", "address": "26350 Saint-Bonnet-de-Valcl\u00e9rieux", "country": "France", "formatted_address": "26350 Saint-Bonnet-de-Valcl\u00e9rieux, France", "lat": 45.195926, "lng": 5.144019999999999, "short_address": null}
{"name": "Chemin des Scouts", "address": "26160 Pont-de-Barret", "country": "France", "formatted_address": "26160 Pont-de-Barret, France", "lat": 44.601948, "lng": 5.0110849, "short_address": null}
{"name": "Chateau de Valcl\u00e9rieux-Ceneric", "address": "330, route du ch\u00e2teau, 26350 Saint-Bonnet de Valcl\u00e9rieux", "country": "France", "formatted_address": "26350 Saint-Bonnet-de-Valcl\u00e9rieux, France", "lat": 45.195926, "lng": 5.144019999999999, "short_address": "26350 Saint-Bonnet de Valcl\u00e9rieux"}
{"name": "Lieu-dit Les Marteilles", "address": "81630 Montdurausse", "country": "France", "formatted_address": "81630 Montdurausse, France", "lat": 43.947364, "lng": 1.56758, "short_address": null}
{"name": "Ch\u00e2teau de Bosc-F\u00e9r\u00e9", "address": "27370 Le Thuit-Signol", "country": "France", "formatted_address": "27370 Le Thuit-Signol, France", "lat": 49.265929, "lng": 0.93998, "short_address": null}
{"name": "Ch\u00e2teau de Carsix", "address": "3 Rue Gustave Heon, 27300 Carsix", "country": "France", "formatted_address": "3 Rue Gustave Heon, 27300 Carsix, France", "lat": 49.14200109999999, "lng": 0.6682684999999999, "short_address": null}
{"name": "Ch\u00e2teau de Cernay", "address": "27330 Bois-Anzeray", "country": "France", "formatted_address": "27330 Bois-Anzeray, France", "lat": 48.926272, "lng": 0.6840200000000001, "short_address": null}
{"name": "Domaine de Cond\u00e9", "address": "5 Le Parc du Ch\u00e2teau, 27160 Cond\u00e9-sur-Iton", "country": "France", "formatted_address": "5 Le Parc du Ch\u00e2teau, 27160 Cond\u00e9-sur-Iton, France", "lat": 48.8289745, "lng": 0.9666353999999999, "short_address": null}
{"name": "Abbaye Notre-Dame de Fontaine-Gu\u00e9rard", "address": "CD 714, 27380 Radepont", "country": "France", "formatted_address": "27380 Radepont, France", "lat": 49.353297, "lng": 1.326536, "short_address": "27380 Radepont"}
{"name": "Lieu-dit En Pamios", "address": "81470 Mouzens", "country": "France", "formatted_address": "81470 Mouzens, France", "lat": 43.529267, "lng": 1.886652, "short_address": null}
{"name": "Manoir de Portejoie", "address": "10 Route de Port Pinche, 27430 Porte-Joie", "country": "France", "formatted_address": "10 Route de Port Pinche, 27430 Porte-Joie, France", "lat": 49.2595845, "lng": 1.2579825, "short_address": null}
{"name": "Lieu-dit Keruscar", "address": "29640 Lann\u00e9anou", "country": "France", "formatted_address": "Lann\u00e9anou, France", "lat": 48.48897700000001, "lng": -3.672365, "short_address": null}
{"name": "Ch\u00e2teau de Montalet", "address": "30410 Moli\u00e8res-sur-C\u00e8ze", "country": "France", "formatted_address": "30410 Moli\u00e8res-sur-C\u00e8ze, France", "lat": 44.261021, "lng": 4.15839, "short_address": null}
{"name": "Chemin des Poissonniers", "address": "30620 Uchaud", "country": "France", "formatted_address": "30620 Uchaud, France", "lat": 43.756062, "lng": 4.267574, "short_address": null}
{"name": "Centrale 7", "address": "Rue du Carreau de Bois II, 49500 Nyoiseau", "country": "France", "formatted_address": "49500 Nyoiseau, France", "lat": 47.716305, "lng": -0.9149379999999999, "short_address": "49500 Nyoiseau"}
{"name": "Salle polyvalente (ancienne chapelle)", "address": "18 grande rue Saint Michel, 31400 Toulouse", "country": "France", "formatted_address": "18 Grande Rue Saint-Michel, 31400 Toulouse, France", "lat": 43.5854614, "lng": 1.4488561, "short_address": null}
{"name": "Blastodice", "address": "52 avenue Honor\u00e9 Serres, 31000 Toulouse", "country": "France", "formatted_address": "52 Avenue Honor\u00e9 Serres, 31000 Toulouse, France", "lat": 43.6151481, "lng": 1.4377319, "short_address": null}
{"name": "Ferme du Prat Mau - Salles J\u00e9r\u00f4me", "address": "31460 Caraman", "country": "France", "formatted_address": "Caramana Dr, Waterview Heights NSW 2460, Australia", "lat": -29.674534, "lng": 152.8798079, "short_address": null}
{"name": "Th\u00e9atre du Pav\u00e9", "address": "34 rue Maran, 31400 Toulouse", "country": "France", "formatted_address": "34 Rue Maran, 31400 Toulouse, France", "lat": 43.5809777, "lng": 1.4476734, "short_address": null}
{"name": "Espace de D\u00e9veloppement de l'Imaginaire Ludique", "address": "5 Place Sainte-Eulalie, 33000 Bordeaux", "country": "France", "formatted_address": "5 Place Sainte-Eulalie, 33000 Bordeaux, France", "lat": 44.8328269, "lng": -0.5775131, "short_address": null}
{"name": "Hameau du Jounie", "address": "34330 Le Souli\u00e9", "country": "France", "formatted_address": "Le Soulier, 19600 Chasteaux, France", "lat": 45.087957, "lng": 1.473415, "short_address": null}
{"name": "L'Heure du Jeu", "address": "11 Boulevard Magenta, 35000 Rennes", "country": "France", "formatted_address": "11 Boulevard Magenta, 35000 Rennes, France", "lat": 48.1063219, "lng": -1.6740723, "short_address": null}
{"name": "Le Logis de la Cornill\u00e8re", "address": "La Cornill\u00e8re, 35750 Iffendic", "country": "France", "formatted_address": "La Cornill\u00e8re, 35750 Iffendic, France", "lat": 48.08374629999999, "lng": -2.0008753, "short_address": null}
{"name": "Maison de Quartier Francisco Ferrer", "address": "40 Rue Montaigne, 35200 Rennes", "country": "France", "formatted_address": "40 Rue Montaigne, 35200 Rennes, France", "lat": 48.096692, "lng": -1.655824, "short_address": null}
{"name": "Les Champs Libres", "address": "10 cours des Alli\u00e9s, 35000 Rennes", "country": "France", "formatted_address": "10 Cours des Alli\u00e9s, 35000 Rennes, France", "lat": 48.1051779, "lng": -1.6746291, "short_address": null}
{"name": "Fort De Saint Pere Saint-P\u00e8re", "address": "35430 Saint P\u00e8re Marc En Poulet", "country": "France", "formatted_address": "35430 Saint-P\u00e8re, France", "lat": 48.588064, "lng": -1.924559, "short_address": null}
{"name": "L'\u00c9toile Bleue Ancienne Maison Close", "address": "15 Rue du Champ de Mars, 37000 Tours", "country": "France", "formatted_address": "15 Rue du Champ de Mars, 37000 Tours, France", "lat": 47.3945418, "lng": 0.6754012999999999, "short_address": null}
{"name": "Ferme Equestre de By", "address": "38510 Courtenay", "country": "France", "formatted_address": "Courtenay Pl, Te Aro, Wellington 6011, New Zealand", "lat": -41.2934839, "lng": 174.7814081, "short_address": null}
{"name": "Fort de Comboire", "address": "38640 Claix", "country": "France", "formatted_address": "38640 Claix, France", "lat": 45.1199439, "lng": 5.672924999999999, "short_address": null}
{"name": "Salle de la Roche Saint Bueil", "address": "38620 Saint Bueil", "country": "France", "formatted_address": "38620 Saint-Bueil, France", "lat": 45.475881, "lng": 5.689401999999999, "short_address": null}
{"name": "MFR de Saint-Barth\u00e9l\u00e9my", "address": "70 route de Marcollin 38270 Saint-Barthelemy", "country": "France", "formatted_address": "70 Route de Marcollin, 38270 Saint-Barthelemy, France", "lat": 45.3457701, "lng": 5.081612199999999, "short_address": null}
{"name": "Ch\u00e2teau d'Aon", "address": "40190 Hontanx", "country": "France", "formatted_address": "40190 Hontanx, France", "lat": 43.824354, "lng": -0.272571, "short_address": null}
{"name": "Ch\u00e2teau de Ch\u00e9mery", "address": "41700 Ch\u00e9mery", "country": "France", "formatted_address": "41700 Ch\u00e9mery, France", "lat": 47.345733, "lng": 1.478938, "short_address": null}
{"name": "Domaine des Bois Argent\u00e9s (La Ferme de Saugirard)", "address": "41200 Prunier En Sologne", "country": "France", "formatted_address": "41200 Pruniers-en-Sologne, France", "lat": 47.322178, "lng": 1.670707, "short_address": null}
{"name": "G\u00eete de Beaulieu", "address": "Beaulieu, 41170 Le Plessis-Dorin", "country": "France", "formatted_address": "Beaulieu, 41170 Le Plessis-Dorin, France", "lat": 48.09289769999999, "lng": 0.8769570999999999, "short_address": null}
{"name": "Chalets du Haut Forez", "address": "Le Plan D'eau, Route D'apinac, 42550 Usson-en-Forez", "country": "France", "formatted_address": "Usson-en-Forez, France", "lat": 45.389247, "lng": 3.941005, "short_address": "42550 Usson-en-Forez"}
{"name": "Pr\u00e9fabrique de l'innovation", "address": "5 rue Javelin Pagnon,  42100 Saint-Etienne, Paris", "country": "France", "formatted_address": "Paris, France", "lat": 48.85661400000001, "lng": 2.3522219, "short_address": "Paris"}
{"name": "Ch\u00e2teau de Marcou", "address": "Marcoux, 43290 Montregard", "country": "France", "formatted_address": "Marcoux, 43290 Montregard, France", "lat": 45.1452213, "lng": 4.3632419, "short_address": null}
{"name": "La Carri\u00e8re", "address": "Le Bellion, 44460 F\u00e9gr\u00e9ac", "country": "France", "formatted_address": "Le Bellion, 44460 F\u00e9gr\u00e9ac, France", "lat": 47.5988119, "lng": -2.0863198, "short_address": null}
{"name": "Maison des Jeux de Nantes", "address": "14 rue Michel Rocher, 44200 Nantes", "country": "France", "formatted_address": "14 Rue Michel Rocher, 44200 Nantes, France", "lat": 47.2063467, "lng": -1.549755, "short_address": null}
{"name": "Salle polyvalente de Moisdon", "address": "44520 Moisdon-La-Rivi\u00e8re", "country": "France", "formatted_address": "44520 Moisdon-la-Rivi\u00e8re, France", "lat": 47.61997899999999, "lng": -1.374449, "short_address": null}
{"name": "Le Big Ben", "address": "1 rue Kerv\u00e9gan, 44000 Nantes", "country": "France", "formatted_address": "1 Rue Kerv\u00e9gan, 44000 Nantes, France", "lat": 47.21372919999999, "lng": -1.5532415, "short_address": null}
{"name": "Chateau de Vaulfin", "address": "Vaulfin, 45320 Courtenay", "country": "France", "formatted_address": "Les Vaulfins, 45320 Courtenay, France", "lat": 47.99310759999999, "lng": 3.0500224, "short_address": null}
{"name": "Don'ry Beach", "address": "45450 Donnery", "country": "France", "formatted_address": "45450 Donnery, France", "lat": 47.914352, "lng": 2.109977, "short_address": null}
{"name": "Hameau du Manoir de La Gabertie", "address": "La Gabertie, 47370 Th\u00e9zac", "country": "France", "formatted_address": "La Gabertie, 47370 Th\u00e9zac, France", "lat": 44.428953, "lng": 0.9948780000000002, "short_address": null}
{"name": "Ch\u00e2teau de Saint Loup en Albret", "address": "47600 Montagnac-sur-Auvignon", "country": "France", "formatted_address": "47600 Montagnac-sur-Auvignon, France", "lat": 44.160786, "lng": 0.459935, "short_address": null}
{"name": "Chevalerie de Sac\u00e9 - Site Arch\u00e9ologique & Jardin Botanique", "address": "1 rue du vieux logis, 49650 Brain-Sur-Allonnes", "country": "France", "formatted_address": "1 Rue du Vieux Logis, 49650 Brain-sur-Allonnes, France", "lat": 47.30254490000001, "lng": 0.06609669999999998, "short_address": null}
{"name": "Ch\u00e2teau de Serrant", "address": "49170 Saint-Georges-sur-Loire", "country": "France", "formatted_address": "49170 Saint-Georges-sur-Loire, France", "lat": 47.40881299999999, "lng": -0.7606191, "short_address": null}
{"name": "Ch\u00e2teau des Loges", "address": "49017 Barac\u00e9", "country": "France", "formatted_address": "R. da Baracela - Parque Novo Mundo, S\u00e3o Paulo - SP, Brazil", "lat": -23.5072108, "lng": -46.5610884, "short_address": null}
{"name": "Club des Conjur\u00e9s du Temporel (derri\u00e8re la SPA)", "address": "Promenade de la Baumette, 49000 Angers", "country": "France", "formatted_address": "Prom. de la Baumette, 49000 Angers, France", "lat": 47.45615979999999, "lng": -0.5718607000000001, "short_address": null}
{"name": "Lieu dit L'Adezi\u00e8re", "address": "route de l'Adezi\u00e8re, 49240 Avrill\u00e9", "country": "France", "formatted_address": "Route de l'Adezi\u00e8re, 49240 Avrill\u00e9, France", "lat": 47.5030579, "lng": -0.6107638, "short_address": null}
{"name": "Ch\u00e2teau de R\u00e9veillon", "address": "1 rue du Ch\u00e2teau, 51310 R\u00e9veillon", "country": "France", "formatted_address": "1 Rue du Ch\u00e2teau, 51310 R\u00e9veillon, France", "lat": 48.7532079, "lng": 3.4521325, "short_address": null}
{"name": "Fort de Montbr\u00e9", "address": "51500 Taissy", "country": "France", "formatted_address": "51500 Taissy, France", "lat": 49.21425999999999, "lng": 4.093792, "short_address": null}
{"name": "Fort du Cognelot (Fort Vercingetorix)", "address": "52600 Chalindrey", "country": "France", "formatted_address": "52600 Chalindrey, France", "lat": 47.804587, "lng": 5.426025999999999, "short_address": null}
{"name": "Site de Bel Air (Village Vacances et Nature)", "address": "Saint-Charles-la-For\u00eat 53170", "country": "France", "formatted_address": "53170 Saint-Charles-la-For\u00eat, France", "lat": 47.915963, "lng": -0.557206, "short_address": null}
{"name": "Ch\u00e2teau du Bourg", "address": "8 Rue du Maine, 53500 Saint-Denis-de-Gastines", "country": "France", "formatted_address": "8 Rue du Maine, 53500 Saint-Denis-de-Gastines, France", "lat": 48.3411371, "lng": -0.8546264000000001, "short_address": null}
{"name": "Echologia", "address": "Bas Barb\u00e9, 53950 Louvern\u00e9", "country": "France", "formatted_address": "Bas Barb\u00e9, 53950 Louvern\u00e9, France", "lat": 48.10808399999999, "lng": -0.718674, "short_address": null}
{"name": "Le Bois du Tay (G\u00eete du Bois du Tay)", "address": "Le Bois du Tay La Croix du H\u00eatre, 53160 Hambers", "country": "France", "formatted_address": "Hambersham Pl, Fayetteville, GA 30214, USA", "lat": 33.46029999999999, "lng": -84.4551841, "short_address": "53160 Hambers"}
{"name": "Domaine du Denais", "address": "Lieu-dit Denais, 53290 Saint-Denis-d'Anjou", "country": "France", "formatted_address": "53290 Saint-Denis-d'Anjou, France", "lat": 47.790671, "lng": -0.4422379999999999, "short_address": "53290 Saint-Denis-d'Anjou"}
{"name": "Domaine du Denais", "address": "Lieu-dit Denais, 53290 Saint-Denis-d'Anjou", "country": "France", "formatted_address": "53290 Saint-Denis-d'Anjou, France", "lat": 47.790671, "lng": -0.4422379999999999, "short_address": "53290 Saint-Denis-d'Anjou"}
{"name": "Fort Event (Fort Aventure", "address": "Fort P\u00e9lissier, Les Vaines Terres), 54550 Bainville-sur-Madon", "country": "France", "formatted_address": "54550 Bainville-sur-Madon, France", "lat": 48.586598, "lng": 6.096050999999999, "short_address": "54550 Bainville-sur-Madon"}
{"name": "Fort de Jouy-sous-les-c\u00f4tes", "address": "Parc Naturel R\u00e9gional de Lorraine, 55200 Geville", "country": "France", "formatted_address": "55200 Chonville-Malaumont, France", "lat": 48.7628909, "lng": 5.629096100000001, "short_address": null}
{"name": "Base de loisirs L'\u00c9tang d'Aleth", "address": "56380 Saint-Malo-de-Beignon", "country": "France", "formatted_address": "Saint-Malo-de-Beignon, France", "lat": 47.958128, "lng": -2.151195, "short_address": null}
{"name": "Camp du Dragon", "address": "19 Rue de la Quintaine, 56430 Saint-Brieuc-de-Mauron", "country": "France", "formatted_address": "19 Rue de la Quintaine, 56430 Saint-Brieuc-de-Mauron, France", "lat": 48.0889494, "lng": -2.362024799999999, "short_address": null}
{"name": "Ch\u00e2teau de Lutzelbourg", "address": "31 Rue du Canal, 57820 Lutzelbourg", "country": "France", "formatted_address": "31 Rue du Canal, 57820 Lutzelbourg, France", "lat": 48.7361166, "lng": 7.2566719, "short_address": null}
{"name": "Ch\u00e2teau Saint Sixte", "address": "Rue du ch\u00e2teau, 57320 Freistroff Moselle", "country": "France", "formatted_address": "Rue du Ch\u00e2teau, 57320 Freistroff, France", "lat": 49.276435, "lng": 6.490831, "short_address": null}
{"name": "Bibliotheque Universitaire Lille 3", "address": "59650 Villeneuve-d'Ascq", "country": "France", "formatted_address": "59650 Villeneuve-d'Ascq, France", "lat": 50.6316211, "lng": 3.1533357, "short_address": null}
{"name": "Dernier Bar avant la Fin du Monde Lille", "address": "12 rue de Pas, 59800 Lille", "country": "France", "formatted_address": "12 Rue de Pas, 59000 Lille, France", "lat": 50.63732149999999, "lng": 3.0614268, "short_address": null}
{"name": "Dame C", "address": "33 rue des Bouchers, 59800 Lille", "country": "France", "formatted_address": "33 Rue des Bouchers, 59800 Lille, France", "lat": 50.63782519999999, "lng": 3.0584544, "short_address": null}
{"name": "Maison des Etudiants", "address": "Universit\u00e9 Lille 1, Avenue Carl Gauss, 59650 Villeneuve-d'Ascq", "country": "France", "formatted_address": "59650 Villeneuve-d'Ascq, France", "lat": 50.6316211, "lng": 3.1533357, "short_address": "59650 Villeneuve-d'Ascq"}
{"name": "Le Biplan", "address": "19 Rue Colbert, 59000 Lille", "country": "France", "formatted_address": "19 Rue Colbert, 59000 Lille, France", "lat": 50.6276851, "lng": 3.047920199999999, "short_address": null}
{"name": "Ch\u00e2teau de Chambly", "address": "rue d'Amblaincourt, 60230 Chambly", "country": "France", "formatted_address": "Rue d'Amblaincourt, 60230 Chambly, France", "lat": 49.159101, "lng": 2.231944, "short_address": null}
{"name": "Mines du Roi Nain", "address": "9 Rue du Four \u00c0 Chaux, 60740 Saint-Maximin", "country": "France", "formatted_address": "9 Rue du Four \u00c0 Chaux, 60740 Saint-Maximin, France", "lat": 49.2159907, "lng": 2.434519, "short_address": null}
{"name": "G\u00eete du Domaine de Pont-Ramond", "address": "Pont Ramond, 61100 La Chapelle-au-Moine", "country": "France", "formatted_address": "Pont Ramond, 61100 La Chapelle-au-Moine, France", "lat": 48.69754299999999, "lng": -0.5847285, "short_address": null}
{"name": "Energie Paintball", "address": "lieu-dit Grande Vienne, 61210 Putanges", "country": "France", "formatted_address": "61210 Putanges-Pont-\u00c9crepin, France", "lat": 48.764351, "lng": -0.245564, "short_address": "61210 Putanges"}
{"name": "La Nuit Magique", "address": "16 rue de Pernes, 62550 Bailleul-l\u00e8s-Pernes", "country": "France", "formatted_address": "16 Rue de Pernes, 62550 Bailleul-l\u00e8s-Pernes, France", "lat": 50.5070563, "lng": 2.391637100000001, "short_address": null}
{"name": "Ch\u00e2teau de Ravel", "address": "63190 Ravel", "country": "France", "formatted_address": "Ravel Rd, North York, ON, Canada", "lat": 43.7915883, "lng": -79.3667801, "short_address": null}
{"name": "Ch\u00e2teau de Saint Cirgues", "address": "63320 Saint-Cirgues-sur-Couze", "country": "France", "formatted_address": "63320 Saint-Cirgues-sur-Couze, France", "lat": 45.55066900000001, "lng": 3.143711, "short_address": null}
{"name": "Gites H\u00e9lio-Ferme", "address": "La Roche, 63490 Brousse", "country": "France", "formatted_address": "La Roche, 63490 Brousse, France", "lat": 45.596189, "lng": 3.473825, "short_address": null}
{"name": "Centre EEDF du Domaine de la Planche", "address": "63250 Viscomtat", "country": "France", "formatted_address": "63250 Viscomtat, France", "lat": 45.827827, "lng": 3.677756, "short_address": null}
{"name": "Chartreuse de Port-Sainte-Marie", "address": "63230 Chapdes-Beaufort", "country": "France", "formatted_address": "Chapdes Beaufort, 63230 Chapdes-Beaufort, France", "lat": 45.892822, "lng": 2.859726, "short_address": null}
{"name": "Centre EEDF du Cambre d'Aze", "address": "29 Las Creus, 66210 Saint-Pierre-dels-For\u00e7ats", "country": "France", "formatted_address": "29 Las Creus, 66210 Saint-Pierre-dels-For\u00e7ats, France", "lat": 42.4945308, "lng": 2.1290067, "short_address": null}
{"name": "Prieur\u00e9 de Marcevol", "address": "Hameau Marcevol, 66320 Arboussols", "country": "France", "formatted_address": "66320 Arboussols, France", "lat": 42.663261, "lng": 2.486197, "short_address": "66320 Arboussols"}
{"name": "AAHJ", "address": "38 Route de Schirmeck, 67200 Strasbourg", "country": "France", "formatted_address": "38 Route de Schirmeck, 67200 Strasbourg, France", "lat": 48.5743046, "lng": 7.723780199999999, "short_address": null}
{"name": "Phare de l'Ill", "address": "29 Rue du G\u00e9n\u00e9ral Libermann, 67400 Illkirch-Graffenstaden", "country": "France", "formatted_address": "29 Rue du G\u00e9n\u00e9ral Libermann, 67400 Illkirch-Graffenstaden, France", "lat": 48.5200267, "lng": 7.7183394, "short_address": null}
{"name": "Biblioth\u00e8que nationale et universitaire", "address": "6 place de la R\u00e9publique, 67000 Strasbourg", "country": "France", "formatted_address": "6 Place de la R\u00e9publique, 67000 Strasbourg, France", "lat": 48.58710699999999, "lng": 7.7558665, "short_address": null}
{"name": "Maison des Jeux de Strasbourg", "address": "38 Route de Schirmeck, 67200 Strasbourg", "country": "France", "formatted_address": "38 Route de Schirmeck, 67200 Strasbourg, France", "lat": 48.5743046, "lng": 7.723780199999999, "short_address": null}
{"name": "Fort Rapp", "address": "Rue du Fort, 67116 Reichstett", "country": "France", "formatted_address": "Reichstett, France", "lat": 48.648262, "lng": 7.753514999999999, "short_address": "67116 Reichstett"}
{"name": "Ch\u00e2teau de Rohan", "address": "39, rue du Ch\u00e2teau Mutzig 67190", "country": "France", "formatted_address": "39 Rue du Ch\u00e2teau, 67190 Mutzig, France", "lat": 48.5363925, "lng": 7.4537256, "short_address": null}
{"name": "La Tani\u00e8re", "address": "261 Ribeaugoutte, 68650 Lapoutroie", "country": "France", "formatted_address": "261 Ribeaugoutte, 68650 Lapoutroie, France", "lat": 48.1687713, "lng": 7.167204099999999, "short_address": null}
{"name": "Estaminet Le Ch'ti Pot Ney", "address": "39 rue Ney, 69006 Lyon", "country": "France", "formatted_address": "39 Rue Ney, 69006 Lyon, France", "lat": 45.7687501, "lng": 4.855498, "short_address": null}
{"name": "G\u00eete de la Sarrasine", "address": "Ch\u00e2teau des Tours, 69460 Saint-Etienne-La-Varenne", "country": "France", "formatted_address": "Les Tours, 69460 Saint-\u00c9tienne-la-Varenne, France", "lat": 46.07763179999999, "lng": 4.6351847, "short_address": null}
{"name": "L'Atenium la Taverne", "address": "80 rue Montesquieu, 69007 Lyon", "country": "France", "formatted_address": "80 Rue Montesquieu, 69007 Lyon, France", "lat": 45.75123199999999, "lng": 4.844961100000001, "short_address": null}
{"name": "Parc M\u00e9di\u00e9val de Salva Terra", "address": "375 Rue du Pav\u00e9, 69610 Haute-Rivoire", "country": "France", "formatted_address": "Rue du Pav\u00e9, 69610 Haute-Rivoire, France", "lat": 45.71449699999999, "lng": 4.3975379, "short_address": null}
{"name": "G\u00eete de la Sarrasine", "address": "Ch\u00e2teau des Tours, 69460 Saint-Etienne-La-Varenne", "country": "France", "formatted_address": "Les Tours, 69460 Saint-\u00c9tienne-la-Varenne, France", "lat": 46.07763179999999, "lng": 4.6351847, "short_address": null}
{"name": "G\u00eete de Gros-Bois (G\u00eete d'Ouroux)", "address": "69860 Ouroux", "country": "France", "formatted_address": "Ouroux, 71800 Ouroux-sous-le-Bois-Sainte-Marie, France", "lat": 46.358453, "lng": 4.309679, "short_address": null}
{"name": "Overcraft Caf\u00e9", "address": "4 rue de la Baleine, 69005 Lyon", "country": "France", "formatted_address": "4 Rue de la Baleine, 69005 Lyon, France", "lat": 45.7633296, "lng": 4.8284824, "short_address": null}
{"name": "Centre Social de Cusset", "address": "87-89 Rue Pierre Voyant, 69100 Villeurbanne", "country": "France", "formatted_address": "89 Rue Pierre Voyant, 69100 Villeurbanne, France", "lat": 45.7675805, "lng": 4.9004425, "short_address": null}
{"name": "Fort de Ch\u00e2teau-Lambert - la T\u00eate de l'Ours", "address": "70440 Le Haut-du-Them", "country": "France", "formatted_address": "Le Haut du Them sous le Me, 70440 Haut-du-Them-Ch\u00e2teau-Lambert, France", "lat": 47.8402278, "lng": 6.7194058, "short_address": null}
{"name": "La Citadelle des Anges", "address": "La Roche, 72220 Teloch\u00e9", "country": "France", "formatted_address": "La Roche, 72220 Teloch\u00e9, France", "lat": 47.8810915, "lng": 0.2770702999999999, "short_address": null}
{"name": "Maison Familiale Rural Education Orientation", "address": "Mange, 72360 Verneil-le-Ch\u00e9tif", "country": "France", "formatted_address": "Mange, 72360 Verneil-le-Ch\u00e9tif, France", "lat": 47.7255545, "lng": 0.3123624, "short_address": null}
{"name": "MJC Jacques Pr\u00e9vert", "address": "97 Grande Rue, 72000 Le Mans", "country": "France", "formatted_address": "97 Grande Rue, 72100 Le Mans, France", "lat": 48.0070212, "lng": 0.195609, "short_address": null}
{"name": "Grand G\u00eete de la Poterie", "address": "Lieu dit La Poterie, 72350 Saint-Denis-d'Orques", "country": "France", "formatted_address": "72350 Saint-Denis-d'Orques, France", "lat": 48.02638, "lng": -0.270363, "short_address": "72350 Saint-Denis-d'Orques"}
{"name": "Fort de Montperch\u00e9", "address": "73220 Aiton", "country": "France", "formatted_address": "Aiton Rd, Sussex East, NB, Canada", "lat": 45.7337424, "lng": -65.4874171, "short_address": null}
{"name": "Essert la Pierre", "address": "74430 Saint-Jean-d'Aulps", "country": "France", "formatted_address": "74430 Saint-Jean-d'Aulps, France", "lat": 46.234581, "lng": 6.655654, "short_address": null}
{"name": "Aux Petits Joueurs", "address": "59 Rue de Mouza\u00efa, 75019 Paris", "country": "France", "formatted_address": "59 Rue de Mouza\u00efa, 75019 Paris, France", "lat": 48.88050250000001, "lng": 2.3962072, "short_address": null}
{"name": "Brasserie Le Pr\u00e9lude", "address": "3 Rue Meyerbeer, 75009 Paris", "country": "France", "formatted_address": "3 Rue Meyerbeer, 75009 Paris, France", "lat": 48.8716312, "lng": 2.3336067, "short_address": null}
{"name": "Dernier Bar avant la Fin du Monde", "address": "19 avenue Victoria, 75001 Paris", "country": "France", "formatted_address": "19 Avenue Victoria, 75001 Paris, France", "lat": 48.85795, "lng": 2.346358, "short_address": null}
{"name": "IPN Paris", "address": "23 rue Mouffetard, 75005 Paris", "country": "France", "formatted_address": "23 Rue Mouffetard, 75005 Paris, France", "lat": 48.8441492, "lng": 2.3494522, "short_address": null}
{"name": "Le Macareux", "address": "15 Rue du Croissant, 75002 Paris", "country": "France", "formatted_address": "15 Rue du Croissant, 75002 Paris, France", "lat": 48.8688641, "lng": 2.3440469, "short_address": null}
{"name": "Centre Paris Anim' Montparnasse", "address": "26 all\u00e9e du Chef d\u2019escadron de Guillebon, Jardin Atlantique, 75014 Paris", "country": "France", "formatted_address": "75014 Paris, France", "lat": 48.8314408, "lng": 2.325568399999999, "short_address": "75014 Paris"}
{"name": "Abbaye de Jumi\u00e8ges", "address": "Parc naturel r\u00e9gional des Boucles de la Seine Normande, 24 Rue Guillaume le Conqu\u00e9rant, 76480 Jumi\u00e8ges", "country": "France", "formatted_address": "24 Rue Guillaume le Conqu\u00e9rant, 76480 Jumi\u00e8ges, France", "lat": 49.4316972, "lng": 0.8180956999999999, "short_address": null}
{"name": "\u00c1sgard (Waaagh Taverne)", "address": "8 rue Saint Denis, 76000 Rouen", "country": "France", "formatted_address": "8 Rue Saint-Denis, 76000 Rouen, France", "lat": 49.43878319999999, "lng": 1.0960458, "short_address": null}
{"name": "Le QG des Avenjoueurs", "address": "18 rue des Foss\u00e9s Louis VIII, 76000 Rouen", "country": "France", "formatted_address": "18 Rue des Foss\u00e9s Louis VIII, 76000 Rouen, France", "lat": 49.44287360000001, "lng": 1.0951531, "short_address": null}
{"name": "Maison St Sever", "address": "10 Rue Saint-Julien, 76100 Rouen", "country": "France", "formatted_address": "10 Rue Saint-Julien, 76100 Rouen, France", "lat": 49.4300442, "lng": 1.084413, "short_address": null}
{"name": "Domaine des Hellandes", "address": "Les Hellandes, 76280 Angerville-l'Orcher", "country": "France", "formatted_address": "Les Hellandes, 76280 Man\u00e9glise, France", "lat": 49.575527, "lng": 0.267088, "short_address": null}
{"name": "Ch\u00e2teau de la Grange le Roi", "address": "77166 Grisy-Suisnes", "country": "France", "formatted_address": "77166 Grisy-Suisnes, France", "lat": 48.68471, "lng": 2.668597, "short_address": null}
{"name": "Comite de Quartier Du Vieux Conflans", "address": "4 Place de l'\u00c9glise, 78700 Conflans-Sainte-Honorine", "country": "France", "formatted_address": "4 Place de l'\u00c9glise, 78700 Conflans-Sainte-Honorine, France", "lat": 48.9919492, "lng": 2.0941553, "short_address": null}
{"name": "Terrain d'AMA France Airsoft", "address": "37 Route de Lainville, 78440 Montalet-le-Bois", "country": "France", "formatted_address": "37 Route de Lainville, 78440 Montalet-le-Bois, France", "lat": 49.0481782, "lng": 1.823712, "short_address": null}
{"name": "Ch\u00e2teau de Vermette", "address": "79300 La Chapelle Gaudin", "country": "France", "formatted_address": "79300 La Chapelle-Gaudin, France", "lat": 46.931605, "lng": -0.3806379, "short_address": null}
{"name": "Le Prieur\u00e9 d\u2019Authie", "address": "10, rue de l'abbaye, 80560 Authie", "country": "France", "formatted_address": "10 Rue de l'Abbaye, 80560 Authie, France", "lat": 50.1217367, "lng": 2.4887294, "short_address": null}
{"name": "Gite de l'Abbaye (Le Prieur\u00e9 d'Authie)", "address": "10 Rue de l'Abbaye 80560 Authie", "country": "France", "formatted_address": "10 Rue de l'Abbaye, 80560 Authie, France", "lat": 50.1217367, "lng": 2.4887294, "short_address": null}
{"name": "Auberge de jeunesse d'Amiens - FUAJ", "address": "30 square friant les 4 ch\u00eanes, 80000 Amiens", "country": "France", "formatted_address": "30 Square Friant les 4 Ch\u00eanes, 80000 Amiens, France", "lat": 49.8902531, "lng": 2.2807878, "short_address": null}
{"name": "Centre EEDF de Foucheval", "address": "81000 Pampelonne", "country": "France", "formatted_address": "Pampelonne S, 07000 Saint-Julien-en-Saint-Alban, France", "lat": 44.75735600000001, "lng": 4.711969000000001, "short_address": null}
{"name": "Ch\u00e2teau de Goudourville", "address": "Lieu dit Le Pech, 761, Chemin du Ch\u00e2teau, 82400 Goudourville", "country": "France", "formatted_address": "82400 Goudourville, France", "lat": 44.114631, "lng": 0.928485, "short_address": "82400 Goudourville"}
{"name": "Ch\u00e2teau de Lavalade", "address": "4048 route de l'A\u00e9rodrome, 82100 Castelsarrasin", "country": "France", "formatted_address": "4048 Route de l'A\u00e9rodrome, 82100 Castelsarrasin, France", "lat": 44.0878281, "lng": 1.1324342, "short_address": null}
{"name": "Les Terres de Saint-Hilaire", "address": "RD3, 83470 Olli\u00e8res", "country": "France", "formatted_address": "83470 Olli\u00e8res, France", "lat": 43.483044, "lng": 5.828688, "short_address": "83470 Olli\u00e8res"}
{"name": "Ch\u00e2teau de l'Environnement du Parc du Luberon", "address": "Parc Naturel r\u00e9gional du Luberon, Col du Pointu, 84480 Buoux", "country": "France", "formatted_address": "84480 Buoux, France", "lat": 43.831611, "lng": 5.377593, "short_address": "84480 Buoux"}
{"name": "Ch\u00e2teau de Commequiers", "address": "Impasse des Tours, 85220 Commequiers", "country": "France", "formatted_address": "Impasse des Tours, 85220 Commequiers, France", "lat": 46.7661986, "lng": -1.8330821, "short_address": null}
{"name": "H\u00f4tel Lodges", "address": "Domaine de la Boulaie, La Boulaie, 85590 Treize-Vents, Pays De La Loire", "country": "France", "formatted_address": "Pays de la Loire, France", "lat": 47.7632836, "lng": -0.3299687, "short_address": "Pays De La Loire"}
{"name": "G\u00eete L'Ancienne Ferme", "address": "85450 Chaill\u00e9 les Marais", "country": "France", "formatted_address": "85450 Chaill\u00e9-les-Marais, France", "lat": 46.394046, "lng": -1.020419, "short_address": null}
{"name": "La M\u00e9lusine", "address": "86600 Clou\u00e9", "country": "France", "formatted_address": "Clouet St, New Orleans, LA, USA", "lat": 29.97780569999999, "lng": -90.04114620000001, "short_address": null}
{"name": "Domaine le Stat", "address": "88530 Le Tholy", "country": "France", "formatted_address": "88530 Le Tholy, France", "lat": 48.082773, "lng": 6.743956999999999, "short_address": null}
{"name": "Moulin de Vanneau", "address": "89520 Saints-en-Puisaye", "country": "France", "formatted_address": "89520 Saints-en-Puisaye, France", "lat": 47.6212919, "lng": 3.262791999999999, "short_address": null}
{"name": "Maison Familiale de Villevallier", "address": "25 Rue Verdeau, 89330 Villevallier", "country": "France", "formatted_address": "25 Rue Verdeau, 89330 Villevallier, France", "lat": 48.0256897, "lng": 3.3130248, "short_address": null}
{"name": "Cafe De La Po\u00e8terie", "address": "4 Route des Janets, 89520 Saint-Sauveur-en-Puisaye", "country": "France", "formatted_address": "4 Route des Janets, 89520 Saint-Sauveur-en-Puisaye, France", "lat": 47.61440200000001, "lng": 3.213034, "short_address": null}
{"name": "Fort de V\u00e9zelois", "address": "Fort Ordener, Rue de Meroux, 90400 V\u00e9zelois", "country": "France", "formatted_address": "90400 V\u00e9zelois, France", "lat": 47.607462, "lng": 6.917465000000001, "short_address": "90400 V\u00e9zelois"}
{"name": "Locaux d'Epitech", "address": "24 Rue Pasteur, 94270 Le Kremlin-Bic\u00eatre", "country": "France", "formatted_address": "24 Rue Pasteur, 94270 Le Kremlin-Bic\u00eatre, France", "lat": 48.8153291, "lng": 2.3631677, "short_address": null}
{"name": "EPITA Campus Paris Villejuif", "address": "66 rue Guy Moquet, 94800 Villejuif", "country": "France", "formatted_address": "66 Rue Guy M\u00f4quet, 94800 Villejuif, France", "lat": 48.7981168, "lng": 2.357232799999999, "short_address": null}
{"name": "Sanatorium d'Aincourt", "address": "95510 Aincourt", "country": "France", "formatted_address": "Aincourt, France", "lat": 49.073261, "lng": 1.771272, "short_address": null}
{"name": "Cormeilles Ludiques", "address": "Salle Caf\u00e9-Jeux, Rond-Point du 8 mai, 95240 Cormeilles-en-Parisis", "country": "France", "formatted_address": "95240 Cormeilles-en-Parisis, France", "lat": 48.973526, "lng": 2.201292, "short_address": "95240 Cormeilles-en-Parisis"}
{"name": "Schloss Kobersdorf", "address": "7332 Kobersdorf", "country": "Austria", "formatted_address": "7332 Kobersdorf, Austria", "lat": 47.5960798, "lng": 16.3909779, "short_address": null}
{"name": "Le terrain de Jalhay", "address": "Arbespine 51, 4845 Jalhay", "country": "Belgium", "formatted_address": "Arbespine 51, 4845 Jalhay, Belgium", "lat": 50.5227254, "lng": 5.888287300000001, "short_address": null}
{"name": "Ch\u00e2teau La Tourelle (Ch\u00e2teau Peltzer)", "address": "Rue Gr\u00e9try 1, 4800 Verviers", "country": "Belgium", "formatted_address": "Rue Gr\u00e9try 1, 4800 Verviers, Belgium", "lat": 50.5815057, "lng": 5.8555434, "short_address": null}
{"name": "Coll\u00e8ge Saint-Michel", "address": "Boulevard Saint-Michel 24, 1040 Etterbeek", "country": "Belgium", "formatted_address": "Boulevard Saint-Michel 24, 1040 Etterbeek, Belgium", "lat": 50.8354553, "lng": 4.4071253, "short_address": null}
{"name": "De Winner-Hopper jeugdverblijf", "address": "Winnerstraat 40, 3900 Overpelt", "country": "Belgium", "formatted_address": "Winnerstraat 40, 3900 Overpelt, Belgium", "lat": 51.1774429, "lng": 5.384941299999999, "short_address": null}
{"name": "ECAM (\u00c9cole centrale des arts et m\u00e9tiers)", "address": "Promenade de l'Alma 50, 1200 Woluwe-Saint-Lambert", "country": "Belgium", "formatted_address": "Prom. de l'Alma 50, 1200 Woluwe-Saint-Lambert, Belgium", "lat": 50.850117, "lng": 4.453595200000001, "short_address": null}
{"name": "Fort de Hollogne", "address": "4460 Gr\u00e2ce-Hollogne", "country": "Belgium", "formatted_address": "4460 Gr\u00e2ce-Hollogne, Belgium", "lat": 50.63412, "lng": 5.47566, "short_address": null}
{"name": "Les Fauvettes", "address": "YWCA de Louette-St-Pierre, Route de la Malcamp\u00e9e 127, 5575 Louette-St-Pierre", "country": "Belgium", "formatted_address": "5575 Louette-Saint-Pierre, Belgium", "lat": 49.96054, "lng": 4.92748, "short_address": "5575 Louette-St-Pierre"}
{"name": "Rue du Sartis 3", "address": "7350 Hensies", "country": "Belgium", "formatted_address": "7350 Hensies, Belgium", "lat": 50.432444, "lng": 3.6844458, "short_address": null}
{"name": "De Winner-Hopper jeugdverblijf", "address": "Winnerstraat 40, 3900 Overpelt", "country": "Belgium", "formatted_address": "Winnerstraat 40, 3900 Overpelt, Belgium", "lat": 51.1774429, "lng": 5.384941299999999, "short_address": null}
{"name": "Castel Notre-Dame", "address": "Obsinnich 6, 3791 Fourons", "country": "Belgium", "formatted_address": "Obsinnich 6, 3791 Fourons, Belgium", "lat": 50.7313378, "lng": 5.8805004, "short_address": null}
{"name": "Chateau de Halloy", "address": "37 Route du Ch\u00e2teau d'Halloy, 5590 Ciney", "country": "Belgium", "formatted_address": "Rue du March\u00e9 Couvert, 5590 Ciney, Belgium", "lat": 50.31012399999999, "lng": 5.115854, "short_address": "5590 Ciney"}
{"name": "Ch\u00e2teau de Hollogne", "address": "Rue de Bierset 6, 4460 Gr\u00e2ce-Hollogne", "country": "Belgium", "formatted_address": "Rue de Bierset 6, 4460 Gr\u00e2ce-Hollogne, Belgium", "lat": 50.6405599, "lng": 5.4669823, "short_address": null}
{"name": "Z\u0159\u00edcenina hradu Rab\u0161tejn nad St\u0159elou", "address": "Rab\u0161tejn nad St\u0159elou 2, 331 62 Man\u011bt\u00edn", "country": "Czech Republic", "formatted_address": "331 62 Man\u011bt\u00edn, Czechia", "lat": 49.9917836, "lng": 13.2332042, "short_address": "331 62 Man\u011bt\u00edn"}
{"name": "Vale\u010d Castle", "address": "Karlovarsk\u00e1, 364 55 Vale\u010d", "country": "Czech Republic", "formatted_address": "Calle 55, Valencia 2001, Carabobo, Venezuela", "lat": 10.1514082, "lng": -68.0222806, "short_address": "364 55 Vale\u010d"}
{"name": "Castle Jeze\u0159\u00ed - Z\u00e1mek Jeze\u0159\u00ed", "address": "435 43 Horn\u00ed Ji\u0159et\u00edn", "country": "Czech Republic", "formatted_address": "435 43 Horn\u00ed Ji\u0159et\u00edn, Czechia", "lat": 50.5702189, "lng": 13.5166536, "short_address": null}
{"name": "Z\u00e1mek \u00dasob\u00ed", "address": "\u00dasob\u00ed 1, 582 54 \u00dasob\u00ed, Vyso\u010dina", "country": "Czech Republic", "formatted_address": "539 01 Vyso\u010dina, Czechia", "lat": 49.7646699, "lng": 15.8289868, "short_address": "Vyso\u010dina"}
{"name": "Efterskolen Epos", "address": "F\u00e6rgevej 5, 6440 Augustenborg", "country": "Denmark", "formatted_address": "F\u00e6rgevej 5, 6440 Augustenborg, Denmark", "lat": 54.9867576, "lng": 9.9771556, "short_address": null}
{"name": "Kronborg Castle (Elsinor)", "address": "Kronborg 2C, 3000 Helsing\u00f8r", "country": "Denmark", "formatted_address": "Kronborg 2, 3000 Helsing\u00f8r, Denmark", "lat": 56.039202, "lng": 12.61949, "short_address": null}
{"name": "Komediehuset", "address": "Over g\u00e5rden, Skolegade 7, 8700 Horsens", "country": "Denmark", "formatted_address": "8700 Horsens, Denmark", "lat": 55.8581302, "lng": 9.8475881, "short_address": "8700 Horsens"}
{"name": "Haus Einschlingen", "address": "Schlingenstra\u00dfe 65, 33649 Bielefeld", "country": "Germany", "formatted_address": "Schlingenstra\u00dfe 65, 33649 Bielefeld, Germany", "lat": 52.00976319999999, "lng": 8.4805155, "short_address": null}
{"name": "Rittergut Brokeloh", "address": "Rittergut Brokeloh 1, 31628 Landesbergen", "country": "Germany", "formatted_address": "Rittergut Brokeloh 1, 31628 Landesbergen, Germany", "lat": 52.55094, "lng": 9.209699999999998, "short_address": null}
{"name": "Ortenberg Castle", "address": "77799 Ortenberg", "country": "Germany", "formatted_address": "Ortenbergstra\u00dfe, 76135 Karlsruhe, Germany", "lat": 48.99154069999999, "lng": 8.3748724, "short_address": null}
{"name": "Ostello Modena San Filippo Neri", "address": "Via Sant'Orsola, 48, 41100 Modena MO", "country": "Italy", "formatted_address": "Via Sant'Orsola, 48, 41100 Modena MO, Italy", "lat": 44.6511356, "lng": 10.92882, "short_address": null}
{"name": "Kasteel Wijenburg", "address": "Voorstraat 2, 4054 MX Echteld", "country": "Netherlands", "formatted_address": "Voorstraat 2, 4054 MX Echteld, Netherlands", "lat": 51.9094128, "lng": 5.5002699, "short_address": null}
{"name": "Kiwanis Huia Lodge", "address": "Little, 1331 Huia Rd, Auckland 0604", "country": "New Zealand", "formatted_address": "Auckland 0604, New Zealand", "lat": -36.9811949, "lng": 174.5850997, "short_address": "Auckland 0604"}
{"name": "Czocha Castle", "address": "Sucha, 59-820 Le\u015bna", "country": "Poland", "formatted_address": "59-820 Stankowice-Sucha, Poland", "lat": 51.0288051, "lng": 15.2997611, "short_address": null}
{"name": "Moszna Castle", "address": "Zamkowa 1, 47-370 Moszna", "country": "Poland", "formatted_address": "47-370 Moszna, Poland", "lat": 50.4362523, "lng": 17.7726715, "short_address": "47-370 Moszna"}
{"name": "Zamek Kliczkow", "address": "59-724 Kliczk\u00f3w", "country": "Poland", "formatted_address": "Kliczkowska 59, 58-100 \u015awidnica, Poland", "lat": 50.8494239, "lng": 16.5031468, "short_address": null}
{"name": "Zamek Ksi\u0105\u017c\u0105t Mazowieckich", "address": "Zamkowa, 96-200 Rawa Mazowiecka", "country": "Poland", "formatted_address": "Zamkowa 96, Rawa Mazowiecka, Poland", "lat": 51.7673324, "lng": 20.2543123, "short_address": null}
{"name": "Wioska Fantasy", "address": "37-700 Ku\u0144kowce", "country": "Poland", "formatted_address": "37-700 Ku\u0144kowce, Poland", "lat": 49.8056196, "lng": 22.7176189, "short_address": null}
{"name": "Moszna Castle", "address": "Zamkowa 1, 47-370 Moszna", "country": "Poland", "formatted_address": "47-370 Moszna, Poland", "lat": 50.4362523, "lng": 17.7726715, "short_address": "47-370 Moszna"}
{"name": "Cuevas Al Jatib", "address": "Arroyo Curcal, S/N, 18800 Baza, Granada", "country": "Spain", "formatted_address": "Granada, Spain", "lat": 37.1773363, "lng": -3.5985571, "short_address": "Granada"}
{"name": "Apartamentos Rurales Molino Gal\u00e1n", "address": "Partida del Molino Galan, s/n, 46369 Alborache, Valencia", "country": "Spain", "formatted_address": "Valencia, Spain", "lat": 39.4699075, "lng": -0.3762881, "short_address": "Valencia"}
{"name": "Airsoft Events Valencia", "address": "46134 Foios, Valencia", "country": "Spain", "formatted_address": "46134 Foios, Valencia, Spain", "lat": 39.5363435, "lng": -0.3524783999999999, "short_address": null}
{"name": "Ch\u00e2teau de L'Isle", "address": "Rue du Ch\u00e2teau 7, 1148 L'Isle", "country": "Switzerland", "formatted_address": "Rue du Ch\u00e2teau 7, 1148 L'Isle, Switzerland", "lat": 46.6191068, "lng": 6.411645300000001, "short_address": null}
{"name": "Fort d'Artillerie de Champsec-Lac", "address": "Route de Champex, 1938 Orsi\u00e8res", "country": "Switzerland", "formatted_address": "Route de Champex, 1938 Orsi\u00e8res, Switzerland", "lat": 46.03173849999999, "lng": 7.1109148, "short_address": null}
{"name": "\u00c9cole polytechnique f\u00e9d\u00e9rale de Lausanne", "address": "Route Cantonale, 1015 Lausanne", "country": "Switzerland", "formatted_address": "Route Cantonale, 1015 Lausanne, Switzerland", "lat": 46.5208057, "lng": 6.5839813, "short_address": null}
{"name": "Ferme de Combe Tabeillon", "address": "2855 Glovelier", "country": "Switzerland", "formatted_address": "2855 Glovelier, Switzerland", "lat": 47.3345052, "lng": 7.204715600000001, "short_address": null}
{"name": "The Nursery Theatre", "address": "Arch 61 Ewer St, SE1 0NR London", "country": "United Kingdom", "formatted_address": "Ewer St, London SE1 0NR, UK", "lat": 51.5039679, "lng": -0.1000841, "short_address": "SE1 0NR London"}
{"name": "The Welsh Drive", "address": "Fleet Road (A327), RG27 0PY Fleet, Hampshire", "country": "United Kingdom", "formatted_address": "Hampshire, UK", "lat": 51.05769480000001, "lng": -1.3080629, "short_address": "Hampshire"}
{"name": "Herstmonceux Castle", "address": "Herstmonceux BN27 1RN", "country": "United Kingdom", "formatted_address": "Herstmonceux, Hailsham BN27 1RN, UK", "lat": 50.8696151, "lng": 0.3384288, "short_address": null}
{"name": "Hilton Orange County / Costa Mesa", "address": "3050 Bristol St, Costa Mesa, CA 92626", "country": "USA", "formatted_address": "3050 Bristol St, Costa Mesa, CA 92626, USA", "lat": 33.6829602, "lng": -117.8844256, "short_address": null}
{"name": "Walnut Creek Marriott", "address": "2355 N Main Street, Walnut Creek, CA 94596", "country": "USA", "formatted_address": "2355 N Main St, Walnut Creek, CA 94596, USA", "lat": 37.9123134, "lng": -122.0666109, "short_address": null}
{"name": "Ch\u00e2teau du Logis", "address": "1 Rue de Vauvert, 41330 Saint-Bohaire", "country": "France", "formatted_address": "1 Rue de Vauvert, 41330 Saint-Bohaire, France", "lat": 47.6434546, "lng": 1.2621398, "short_address": null}
{"name": "MFR Chateau de Jolibert", "address": "Jolibert 47410 Bourgougnague", "country": "France", "formatted_address": "Jolibert, 47410 Bourgougnague, France", "lat": 44.62193300000001, "lng": 0.41754, "short_address": null}
{"name": "Escapegame lizio Bretagne", "address": "Lieu-dit Le Val Jouin, 56460 Lizio", "country": "France", "formatted_address": "56460 Lizio, France", "lat": 47.863636, "lng": -2.526574, "short_address": "56460 Lizio"}
{"name": "Maison de Quartier La Touche", "address": "6 rue du Cardinal Paul Gouyon, 35000 Rennes", "country": "France", "formatted_address": "Rennes Dr, Exeter EX4 4RN, UK", "lat": 50.7375406, "lng": -3.529855, "short_address": "35000 Rennes"}
{"name": "42 avenue du Docteur Calmette", "address": "59118 Wambrechies", "country": "France", "formatted_address": "59118 Wambrechies, France", "lat": 50.68751999999999, "lng": 3.052377, "short_address": null}
{"name": "Parc des Expositions de Rouen", "address": "46-48 avenue des Canadiens, 76120 Grand-Quevilly", "country": "France", "formatted_address": "46 Avenue des Canadiens, 76120 Le Grand-Quevilly, France", "lat": 49.3941169, "lng": 1.0562003, "short_address": null}
{"name": "Rampe Saint-Gervais", "address": "76000 Rouen", "country": "France", "formatted_address": "76000 Rouen, France", "lat": 49.4464909, "lng": 1.0976001, "short_address": null}
{"name": "Team Break Rouen", "address": "32 Place Saint Marc, 76000 Rouen", "country": "France", "formatted_address": "32 Place Saint-Marc, 76000 Rouen, France", "lat": 49.4386247, "lng": 1.1019606, "short_address": null}
{"name": "Les Mines du Roi Nain", "address": "rue du cimeti\u00e8re, 60290 Laigneville", "country": "France", "formatted_address": "Rue du Cimeti\u00e8re, 60290 Laigneville, France", "lat": 49.28852, "lng": 2.445085999999999, "short_address": null}
{"name": "Fort Rapp-Moltke", "address": "Rue du Fort, 67116 Reichstett", "country": "France", "formatted_address": "Reichstett, France", "lat": 48.648262, "lng": 7.753514999999999, "short_address": "67116 Reichstett"}
{"name": "MFR Sud Charente", "address": "Ancienne Abbaye, 16190 Aignes-et-Puyp\u00e9roux", "country": "France", "formatted_address": "16190 Aignes-et-Puyp\u00e9roux, France", "lat": 45.445016, "lng": 0.1375797, "short_address": "16190 Aignes-et-Puyp\u00e9roux"}
{"name": "Abbaye Cistercienne", "address": "Lieu-dit Villers-Canivet, 14420 Villers-Canivet", "country": "France", "formatted_address": "14420 Villers-Canivet, France", "lat": 48.940013, "lng": -0.25403, "short_address": "14420 Villers-Canivet"}
{"name": "Mont Saint-Michel", "address": "50116 Mont Saint-Michel", "country": "France", "formatted_address": "Mont St Michel Way, Martinez, CA 94553, USA", "lat": 38.0003433, "lng": -122.1062101, "short_address": null}
{"name": "Parc des expositions de Toulouse", "address": "Rond-Point Michel Benech, 31400 Toulouse", "country": "France", "formatted_address": "Rond-Point Michel B\u00e9nech, 31400 Toulouse, France", "lat": 43.58778409999999, "lng": 1.4367414, "short_address": null}
{"name": "MFR Chateau de Jolibert", "address": "47410 Bourgougnague", "country": "France", "formatted_address": "47410 Bourgougnague, France", "lat": 44.615303, "lng": 0.414429, "short_address": null}
{"name": "Ch\u00e2teau de la No\u00eb Bel-Air", "address": "44330 Vallet", "country": "France", "formatted_address": "Valletta Waterfront, Floriana, Malta", "lat": 35.8901301, "lng": 14.5079854, "short_address": null}
{"name": "Centre de loisirs et d'accueil du Petit Capitole MJC", "address": "153 Avenue de Lardenne, 31100 Toulouse", "country": "France", "formatted_address": "153 Avenue de Lardenne, 31100 Toulouse, France", "lat": 43.59134090000001, "lng": 1.389038, "short_address": null}
{"name": "Domaine Le Picou", "address": "11310 Saissac", "country": "France", "formatted_address": "Saissac, 46500 Padirac, France", "lat": 44.8415772, "lng": 1.7739578, "short_address": null}
{"name": "Prieur\u00e9 d'Authie", "address": "10 rue de l'Abbaye, 80560 Authie", "country": "France", "formatted_address": "10 Rue de l'Abbaye, 80560 Authie, France", "lat": 50.1217367, "lng": 2.4887294, "short_address": null}
{"name": "Ch\u00e2teau d'Ailly", "address": "All\u00e9e d'Ailly, 42120 Parigny", "country": "France", "formatted_address": "Chemin d'Ailly, 42120 Parigny, France", "lat": 45.9943484, "lng": 4.097410099999999, "short_address": null}
{"name": "Domaine provincial de Chevetogne", "address": "5590 Ciney", "country": "Belgium", "formatted_address": "Rue du March\u00e9 Couvert, 5590 Ciney, Belgium", "lat": 50.31012399999999, "lng": 5.115854, "short_address": null}
{"name": "G\u00eete des Deux Clos", "address": "64460 Pontiacq-Viellepinte", "country": "France", "formatted_address": "64460 Pontiacq-Viellepinte, France", "lat": 43.36408899999999, "lng": -0.051683, "short_address": null}
{"name": "Domaine de la Roche-Florens", "address": "24120 Terrasson-Lavilledieu", "country": "France", "formatted_address": "24120 Terrasson-Lavilledieu, France", "lat": 45.12755999999999, "lng": 1.305566, "short_address": null}
{"name": "Village Commando Bainville sur Madon", "address": "Les Vaines Terres, 54550 Bainville-Sur-Madon", "country": "France", "formatted_address": "54550 Bainville-sur-Madon, France", "lat": 48.586598, "lng": 6.096050999999999, "short_address": "54550 Bainville-Sur-Madon"}
{"name": "Ch\u00e2teau de la Baronni\u00e8re", "address": "La Chapelle-Saint-Florent, 49620 La Pommeraye", "country": "France", "formatted_address": "La Pommeraye, 14140 Auquainville, France", "lat": 49.0597489, "lng": 0.2210472, "short_address": "49620 La Pommeraye"}
